%time,t(ns),field.orientation.x,field.orientation.y,field.orientation.z,field.angular_velocity.z,field.linear_acceleration.x,field.linear_acceleration.y,t(s)
1.63E+18,0,-0.000303376,0.000200123,4.18E-05,0.000798382,0.4688375,0.205107629,0
1.63E+18,9960192,-0.000307959,0.000196643,4.59E-05,0.001986797,0.466344744,0.204459742,0.009960192
1.63E+18,19950080,-0.000311507,0.000209327,5.43E-05,0.002173379,0.46702382,0.20084399,0.01995008
1.63E+18,29980160,-0.000308702,0.000219284,5.95E-05,0.001118809,0.468033135,0.197818413,0.02998016
1.63E+18,39950080,-0.000301553,0.000228773,5.81E-05,-0.00030384,0.46797806,0.200568706,0.03995008
1.63E+18,49970176,-0.000293108,0.000236313,4.98E-05,-0.00120571,0.469253004,0.204870507,0.049970176
1.63E+18,59970048,-0.00028899,0.000242501,4.46E-05,0.000355632,0.468628824,0.20626159,0.059970048
1.63E+18,69970176,-0.000287128,0.000247914,4.59E-05,0.00102341,0.465452254,0.20535399,0.069970176
1.63E+18,79960064,-0.000267498,0.000196738,4.49E-05,5.73E-05,0.462607741,0.202687025,0.079960064
1.63E+18,89980160,-0.000250368,0.000193212,4.19E-05,0.000516897,0.463232785,0.204935431,0.08998016
1.63E+18,99950080,-0.000245762,0.000191342,4.37E-05,0.001033351,0.467504144,0.205638304,0.09995008
1.63E+18,110020096,-0.000256281,0.000179228,4.17E-05,-0.00044255,0.471945822,0.207166523,0.110020096
1.63E+18,120000000,-0.000258004,0.000172303,3.60E-05,-0.000133543,0.466561347,0.209832922,0.12
1.63E+18,134190080,-0.000254684,0.000186489,3.50E-05,0.00033759,0.465616137,0.205247045,0.13419008
1.63E+18,140480000,-0.000256924,0.000188899,3.13E-05,-0.00027541,0.468721062,0.203529522,0.14048
1.63E+18,149990144,-0.00027291,0.000177922,3.16E-05,0.001410793,0.471312553,0.21081011,0.149990144
1.63E+18,161530112,-0.000284802,0.00018082,3.78E-05,0.001720521,0.472153038,0.215366572,0.161530112
1.63E+18,169990144,-0.000294585,0.000192701,3.97E-05,0.000706914,0.466708869,0.215529129,0.169990144
1.63E+18,180050176,-0.000305845,0.00020612,4.13E-05,0.00107314,0.468815595,0.214081362,0.180050176
1.63E+18,190040064,-0.000323277,0.000211505,4.28E-05,0.000442553,0.466752052,0.209978178,0.190040064
1.63E+18,199970048,-0.000344345,0.000208269,3.95E-05,-0.000457833,0.46357888,0.206355825,0.199970048
1.63E+18,209960192,-0.000355438,0.000199897,3.69E-05,0.000663149,0.469469249,0.20255959,0.209960192
1.63E+18,219990016,-0.000358536,0.000192314,3.99E-05,0.001316807,0.4722386,0.200348541,0.219990016
1.63E+18,230550016,-0.000345539,0.000201354,4.06E-05,0.000567856,0.469810873,0.198696449,0.230550016
1.63E+18,240010240,-0.000326909,0.00021749,4.05E-05,0.000870633,0.468771994,0.199827015,0.24001024
1.63E+18,249950208,-0.00032093,0.000227871,4.01E-05,0.00027174,0.470011115,0.201289028,0.249950208
1.63E+18,259990016,-0.000321589,0.000242682,3.99E-05,0.000934989,0.470511049,0.199376434,0.259990016
1.63E+18,270040064,-0.000321036,0.000253709,4.10E-05,0.000384133,0.471440047,0.203068122,0.270040064
1.63E+18,279970048,-0.000336153,0.000215256,3.04E-05,-0.001041512,0.470100284,0.205606714,0.279970048
1.63E+18,289980160,-0.000342495,0.000208916,2.31E-05,-0.000720166,0.467658907,0.205340073,0.28998016
1.63E+18,300000256,-0.000343978,0.000219258,1.76E-05,-0.000290726,0.467548519,0.207089216,0.300000256
1.63E+18,309960192,-0.00035006,0.00023266,1.67E-05,0.000807057,0.470109612,0.209544405,0.309960192
1.63E+18,321030144,-0.000361137,0.000248879,1.85E-05,0.000981571,0.469048083,0.212974444,0.321030144
1.63E+18,330460160,-0.00037325,0.000255673,2.26E-05,0.001930903,0.464412749,0.213110387,0.33046016
1.63E+18,339970048,-0.00038016,0.000256245,3.39E-05,0.003336822,0.463680863,0.204940394,0.339970048
1.63E+18,349970176,-0.000374058,0.00027138,4.49E-05,0.002209072,0.467869699,0.197349057,0.349970176
1.63E+18,360220160,-0.000380437,0.000280601,4.70E-05,0.00033606,0.473163396,0.201815709,0.36022016
1.63E+18,373660160,-0.000402322,0.000274435,4.24E-05,-0.000853973,0.474884093,0.205584303,0.37366016
1.63E+18,382460160,-0.000409937,0.000276974,3.34E-05,-0.001214415,0.470742255,0.205033034,0.38246016
1.63E+18,389960192,-0.000402085,0.000282867,2.94E-05,0.000688641,0.468012959,0.205756024,0.389960192
1.63E+18,400090112,-0.000402293,0.000291143,3.26E-05,0.001391819,0.470040023,0.204123452,0.400090112
1.63E+18,411640064,-0.000414979,0.000306362,3.81E-05,0.001858082,0.46835193,0.201111123,0.411640064
1.63E+18,419950080,-0.000423478,0.000310732,4.24E-05,0.001123464,0.466881931,0.20167923,0.41995008
1.63E+18,430020096,-0.000422575,0.000313762,4.46E-05,0.001065604,0.467724115,0.203230038,0.430020096
1.63E+18,450020096,-0.000444993,0.000315696,4.40E-05,6.89E-05,0.469917446,0.210177019,0.450020096
1.63E+18,459990016,-0.000457535,0.00032663,4.24E-05,8.56E-05,0.467949152,0.209243014,0.459990016
1.63E+18,469970176,-0.000472162,0.000337766,3.81E-05,-0.00024268,0.465696782,0.205297217,0.469970176
1.63E+18,479950080,-0.0004983,0.000336497,3.09E-05,0.00011489,0.469634384,0.19997935,0.47995008
1.63E+18,490100224,-0.000505607,0.000341969,2.78E-05,8.24E-06,0.468098193,0.198453143,0.490100224
1.63E+18,499990016,-0.000517952,0.000334896,2.61E-05,0.000507779,0.465553164,0.203419507,0.499990016
1.63E+18,509950208,-0.000536887,0.000326507,2.50E-05,-3.65E-06,0.47019884,0.200307131,0.509950208
1.63E+18,519950080,-0.000542436,0.000337736,2.12E-05,2.63E-05,0.472501755,0.200021014,0.51995008
1.63E+18,530200064,-0.000538044,0.000347085,2.09E-05,0.000966503,0.471550435,0.207763731,0.530200064
1.63E+18,539970048,-0.000543227,0.000352278,2.21E-05,0.000591925,0.470742822,0.209842414,0.539970048
1.63E+18,549980160,-0.00054776,0.000358784,2.26E-05,0.00084693,0.469068557,0.206082433,0.54998016
1.63E+18,561720064,-0.0005492,0.000358001,2.28E-05,0.000273813,0.465317726,0.20475851,0.561720064
1.63E+18,570020096,-0.000554828,0.000343886,1.78E-05,-0.000678983,0.47103247,0.207833499,0.570020096
1.63E+18,579990016,-0.000555677,0.000318595,1.56E-05,0.000835258,0.4717668,0.208508253,0.579990016
1.63E+18,589960192,-0.000546414,0.000309034,1.61E-05,0.000289231,0.467767,0.208314747,0.589960192
1.63E+18,599920128,-0.000543524,0.000314584,1.14E-05,-0.000326175,0.467054725,0.205192372,0.599920128
1.63E+18,619970048,-0.000562672,0.000296167,2.17E-05,0.001832654,0.470968693,0.201410711,0.619970048
1.63E+18,630080000,-0.0005615,0.000288628,2.03E-05,-0.000346116,0.467154384,0.20276466,0.63008
1.63E+18,639970048,-0.000565755,0.000278397,1.37E-05,-0.000654777,0.466605395,0.204370037,0.639970048
1.63E+18,651550208,-0.00057243,0.000261228,9.99E-06,0.000171692,0.467525274,0.201727659,0.651550208
1.63E+18,659980032,-0.000570932,0.000252007,1.03E-05,0.001112816,0.470955342,0.208147481,0.659980032
1.63E+18,670050048,-0.000562851,0.00025924,1.49E-05,0.001660726,0.467906207,0.209550649,0.670050048
1.63E+18,699970048,-0.000559145,0.000260694,2.16E-05,0.000641462,0.465268761,0.200782686,0.699970048
1.63E+18,710060032,-0.000569236,0.000268162,2.04E-05,0.000272445,0.464561939,0.206443131,0.710060032
1.63E+18,719970048,-0.00057258,0.000275081,2.10E-05,0.001007149,0.467923135,0.211422831,0.719970048
1.63E+18,731790080,-0.000571057,0.000275615,2.56E-05,0.001900913,0.458880454,0.198272616,0.73179008
1.63E+18,754620160,-0.000591754,0.000216034,3.65E-05,0.001122476,0.472387344,0.193201065,0.75462016
1.63E+18,761940224,-0.000591677,0.000208998,3.28E-05,-0.000955893,0.468148708,0.210010007,0.761940224
1.63E+18,769990144,-0.000585082,0.000222398,2.14E-05,-0.00174097,0.458007216,0.221010044,0.769990144
1.63E+18,779960064,-0.000579385,0.000221773,1.41E-05,-0.00038767,0.476566702,0.201002419,0.779960064
1.63E+18,789970176,-0.000586276,0.00020887,8.06E-06,-0.000830628,0.459197044,0.217527866,0.789970176
1.63E+18,799980032,-0.000595512,0.000205868,-3.33E-07,-0.001073332,0.355010152,0.199112386,0.799980032
1.63E+18,810030080,-0.000613139,0.000206438,-6.06E-06,0.000230408,0.323972553,0.194960937,0.81003008
1.63E+18,820940032,-0.000633524,0.000206219,-2.00E-07,0.002394603,0.404992402,0.196544662,0.820940032
1.63E+18,830070016,-0.000636292,0.000209084,7.79E-06,0.001805917,0.392559111,0.222152457,0.830070016
1.63E+18,839980032,-0.000635147,0.000201779,1.34E-05,0.001980765,0.352711886,0.191480115,0.839980032
1.63E+18,849960192,-0.000636756,0.000188835,2.36E-05,0.002929297,0.43189317,0.201216727,0.849960192
1.63E+18,859950080,-0.000631833,0.000179944,3.42E-05,0.002531678,0.442194968,0.20677042,0.85995008
1.63E+18,869980160,-0.000616738,0.000171524,3.72E-05,0.000327553,0.444592714,0.198053673,0.86998016
1.63E+18,879960064,-0.000518201,0.000122561,3.28E-05,0.000457471,0.46406582,0.220639244,0.879960064
1.63E+18,889950208,-0.000498856,0.000134413,3.69E-05,0.001975463,0.491329312,0.188055173,0.889950208
1.63E+18,899940096,-0.000492366,0.000149567,3.95E-05,0.00036829,0.50791955,0.23207669,0.899940096
1.63E+18,910030080,-0.000488582,0.00016257,3.60E-05,1.70E-05,0.482257336,0.206943735,0.91003008
1.63E+18,919930112,-0.000492335,0.000154426,3.58E-05,0.000758436,0.523438871,0.211313754,0.919930112
1.63E+18,930180096,-0.000502054,0.000135846,3.51E-05,0.000102363,0.512694418,0.236247793,0.930180096
1.63E+18,940110080,-0.000508046,0.000124127,3.09E-05,-0.00044452,0.512875021,0.220583707,0.94011008
1.63E+18,952000000,-0.000519025,0.000119779,2.48E-05,-0.000575613,0.522489846,0.204984471,0.952
1.63E+18,959960064,-0.000524537,0.000116782,1.80E-05,-0.000988022,0.530297339,0.210030273,0.959960064
1.63E+18,969960192,-0.000523879,0.000113789,1.04E-05,-0.000515166,0.501917243,0.215507746,0.969960192
1.63E+18,980050176,-0.000526688,0.000123259,9.12E-06,0.000844332,0.513124406,0.186674818,0.980050176
1.63E+18,990010112,-0.000533404,0.000137915,9.85E-06,0.000658194,0.524581015,0.19740729,0.990010112
1.63E+18,999950080,-0.000542459,0.000145854,1.36E-05,0.001845684,0.493508488,0.185855344,0.99995008
1.63E+18,1009960192,-0.000553001,0.000150107,1.81E-05,0.000876018,0.495517015,0.176141575,1.009960192
1.63E+18,1021270016,-0.000561086,0.000146482,1.48E-05,-0.000517075,0.496226609,0.176483437,1.021270016
1.63E+18,1035560192,-0.000560277,0.000134534,8.79E-06,-0.000637189,0.493133634,0.186620384,1.035560192
1.63E+18,1040510208,-0.000542515,0.00015873,-3.33E-07,-0.000139891,0.479827255,0.18560037,1.040510208
1.63E+18,1060000256,-0.000534274,0.000169514,-7.99E-06,-0.001250654,0.474252909,0.206932291,1.060000256
1.63E+18,1069960192,-0.000530473,0.000194289,-1.50E-05,-0.000179459,0.456317782,0.221848205,1.069960192
1.63E+18,1079970048,-0.000860677,0.000182715,-1.75E-05,0.00125443,0.465569079,0.218541533,1.079970048
1.63E+18,1089990144,-0.000850701,0.000187621,-1.35E-05,0.001487745,0.464150816,0.231944174,1.089990144
1.63E+18,1100010240,-0.000854554,0.000185609,-1.13E-05,0.000568884,0.459818542,0.229443654,1.10001024
1.63E+18,1109950208,-0.000867009,0.000183291,-1.38E-05,0.000129704,0.458640993,0.225487143,1.109950208
1.63E+18,1119960064,-0.000881003,0.000188928,-1.48E-05,0.000600845,0.470448107,0.218772739,1.119960064
1.63E+18,1131560192,-0.000890775,0.000200383,-1.54E-05,0.000210612,0.460920155,0.216922179,1.131560192
1.63E+18,1140110080,-0.00089633,0.000211326,-1.84E-05,7.15E-05,0.460025787,0.212110445,1.14011008
1.63E+18,1149960192,-0.000894366,0.000214099,-2.21E-05,-0.00032982,0.471412838,0.195917934,1.149960192
1.63E+18,1179920128,-0.000888389,0.000215456,-2.46E-05,0.000937262,0.471385986,0.188664854,1.179920128
1.63E+18,1190030080,-0.000879956,0.000228734,-2.63E-05,-0.00028123,0.47534436,0.19573614,1.19003008
1.63E+18,1199950080,-0.000873983,0.000238296,-3.61E-05,-0.001661244,0.465458632,0.200162381,1.19995008
1.63E+18,1209940224,-0.000870625,0.000245379,-4.08E-05,0.001131107,0.46717751,0.202919081,1.209940224
1.63E+18,1219950080,-0.000879074,0.000259163,-3.18E-05,0.00263369,0.468335629,0.200743094,1.21995008
1.63E+18,1231730176,-0.000893453,0.00027551,-2.86E-05,3.47E-05,0.464486539,0.212316662,1.231730176
1.63E+18,1239960064,-0.000903833,0.000283817,-3.49E-05,-0.000636706,0.464817256,0.217395693,1.239960064
1.63E+18,1249950208,-0.000915649,0.000284007,-3.79E-05,0.000232768,0.469462901,0.21096532,1.249950208
1.63E+18,1259990016,-0.000920311,0.000277534,-4.15E-05,-0.00039226,0.464719653,0.213244468,1.259990016
1.63E+18,1269980160,-0.000916751,0.000275043,-4.65E-05,-7.31E-05,0.464501709,0.214431062,1.26998016
1.63E+18,1279950080,-0.000594064,0.000250408,-4.57E-05,0.000659918,0.468215823,0.22014305,1.27995008
1.63E+18,1289950208,-0.000597349,0.000239674,-4.47E-05,0.000978892,0.461982161,0.214651883,1.289950208
1.63E+18,1299990016,-0.000582234,0.000236593,-4.13E-05,0.001385372,0.456165195,0.211881861,1.299990016
1.63E+18,1309950208,-0.000575145,0.000234078,-3.99E-05,0.000531864,0.460986704,0.214573666,1.309950208
1.63E+18,1320020224,-0.000587712,0.000218106,-4.21E-05,-0.000169036,0.469442964,0.204744205,1.320020224
1.63E+18,1330900224,-0.000599045,0.000193264,-5.14E-05,-0.001867927,0.466709882,0.197240174,1.330900224
1.63E+18,1340010240,-0.000604159,0.000178422,-6.11E-05,-0.00063227,0.462519318,0.190794989,1.34001024
1.63E+18,1356370176,-0.000609238,0.000172966,-6.21E-05,0.000774821,0.459928274,0.189302698,1.356370176
1.63E+18,1380060160,-0.000634704,0.000149025,-6.52E-05,0.000557616,0.462695658,0.192752257,1.38006016
1.63E+18,1389990144,-0.000643992,0.000147321,-6.60E-05,0.000227433,0.459029675,0.1933669,1.389990144
1.63E+18,1400000000,-0.000642567,0.000153285,-7.12E-05,-0.000854811,0.458353013,0.197706521,1.4
1.63E+18,1410010112,-0.00063475,0.000149994,-8.04E-05,-0.001059764,0.461681008,0.206849411,1.410010112
1.63E+18,1420450048,-0.000630689,0.000146401,-8.66E-05,-0.00043958,0.462726235,0.212937534,1.420450048
1.63E+18,1429990144,-0.000628025,0.000140826,-9.15E-05,-0.000383158,0.465600193,0.213506043,1.429990144
1.63E+18,1439960064,-0.000626885,0.000125241,-9.66E-05,-0.000337551,0.462347895,0.219091177,1.439960064
1.63E+18,1449970176,-0.000628136,0.00011765,-9.97E-05,0.000245755,0.458906233,0.220558554,1.449970176
1.63E+18,1459940096,-0.000627418,0.000128684,-0.000101533,5.27E-05,0.460106343,0.214721054,1.459940096
1.63E+18,1469980160,-0.000616555,0.000142507,-0.000106859,-0.000286644,0.465753973,0.213438824,1.46998016
1.63E+18,1479950080,-0.000378841,0.000199808,-0.000104063,0.001620013,0.465117037,0.2121723,1.47995008
1.63E+18,1490020096,-0.000385877,0.00021344,-9.89E-05,0.001266231,0.460413158,0.206466004,1.490020096
1.63E+18,1499980032,-0.00038723,0.000221207,-9.86E-05,0.000343188,0.460525244,0.201468751,1.499980032
1.63E+18,1509970176,-0.00038729,0.000220071,-0.000101,2.81E-05,0.462240815,0.194233105,1.509970176
1.63E+18,1519990016,-0.000385339,0.000219392,-0.000102931,0.000321879,0.463228792,0.188275069,1.519990016
1.63E+18,1529980160,-0.000393992,0.000227306,-0.000104462,0.000106697,0.465878367,0.188859522,1.52998016
1.63E+18,1539960064,-0.000411188,0.000245759,-0.00010606,0.00056197,0.466522902,0.186218277,1.539960064
1.63E+18,1550060032,-0.000408034,0.000252113,-0.000104529,0.001228799,0.466090411,0.188017905,1.550060032
1.63E+18,1560760064,-0.000406059,0.00024401,-0.000102465,0.000970064,0.470247775,0.198661655,1.560760064
1.63E+18,1569950208,-0.000415461,0.000220089,-0.000101,0.0009169,0.471742719,0.204106763,1.569950208
1.63E+18,1579980032,-0.000415609,0.000190762,-9.93E-05,0.001031735,0.474326849,0.205913574,1.579980032
1.63E+18,1589960192,-0.000414608,0.000175904,-9.61E-05,0.00135055,0.47967571,0.209982857,1.589960192
1.63E+18,1600010240,-0.000416579,0.000164893,-9.26E-05,0.001195128,0.484885693,0.215058684,1.60001024
1.63E+18,1609950208,-0.000406521,0.000159287,-8.97E-05,0.001316852,0.480202973,0.212354317,1.609950208
1.63E+18,1619930112,-0.000394809,0.000161229,-8.84E-05,0.000602667,0.4758569,0.20885697,1.619930112
1.63E+18,1630880256,-0.00039313,0.000161273,-9.03E-05,0.000157484,0.474783957,0.210884869,1.630880256
1.63E+18,1646370048,-0.000383539,0.000163778,-9.18E-05,0.000424662,0.471490443,0.212192684,1.646370048
1.63E+18,1649980160,-0.00037361,0.000164826,-9.51E-05,-0.000173897,0.473004967,0.211129665,1.64998016
1.63E+18,1659970048,-0.000364672,0.000166249,-9.92E-05,-0.000191415,0.478198439,0.209634349,1.659970048
1.63E+18,1669970176,-0.000350318,0.000180227,-0.000104462,-0.000396793,0.483045042,0.207736492,1.669970176
1.63E+18,1679940096,-0.000279549,0.000211161,-0.000100335,-0.000143255,0.484295934,0.208026335,1.679940096
1.63E+18,1690020096,-0.000280154,0.000206149,-0.000103197,-9.17E-05,0.483636558,0.200975731,1.690020096
1.63E+18,1699970048,-0.000274285,0.000199894,-0.000109256,-0.000712844,0.480954438,0.195905477,1.699970048
1.63E+18,1709960192,-0.000265297,0.00020373,-0.000115248,-0.000373519,0.480497777,0.197422877,1.709960192
1.63E+18,1719960064,-0.000247154,0.000263304,-0.000114982,0.001031762,0.472278953,0.195226714,1.719960064
1.63E+18,1740000256,-0.000238411,0.000280369,-0.000116114,-4.19E-05,0.473552436,0.199972942,1.740000256
1.63E+18,1759660032,-0.00023101,0.000301505,-0.00011911,0.000364219,0.475816101,0.207134321,1.759660032
1.63E+18,1761670144,-0.000234564,0.000315694,-0.000119975,0.000360997,0.470975429,0.206873775,1.761670144
1.63E+18,1769990144,-0.000246245,0.000316703,-0.00012184,0.000108765,0.468297601,0.21002838,1.769990144
1.63E+18,1779960064,-0.000246892,0.000326625,-0.000124236,0.000290295,0.471317858,0.212062821,1.779960064
1.63E+18,1790010112,-0.000245163,0.000343905,-0.000125968,0.000266339,0.471690059,0.212275639,1.790010112
1.63E+18,1803770112,-0.000261208,0.000350176,-0.000126633,0.000502362,0.472083718,0.215145841,1.803770112
1.63E+18,1809970176,-0.000273763,0.000357531,-0.000126101,0.000565144,0.471734107,0.213205546,1.809970176
1.63E+18,1819950080,-0.000281694,0.00036016,-0.000131161,-0.001280382,0.468601882,0.213665649,1.81995008
1.63E+18,1830010112,-0.000289271,0.000367505,-0.000143678,-0.001958807,0.467233241,0.214016899,1.830010112
1.63E+18,1839970048,-0.000279599,0.000396163,-0.000152466,-0.000530745,0.470689803,0.209943965,1.839970048
1.63E+18,1849970176,-0.000262115,0.000424155,-0.000158325,-0.000540958,0.472528398,0.204808354,1.849970176
1.63E+18,1859950080,-0.000259904,0.00044061,-0.000165316,-0.000656357,0.468289047,0.198163599,1.85995008
1.63E+18,1869990144,-0.000271401,0.000447619,-0.000168045,0.000549867,0.467498749,0.199388608,1.869990144
1.63E+18,1880010240,-0.000218388,0.000421042,-0.000157992,0.000261002,0.468588918,0.202571481,1.88001024
1.63E+18,1889950208,-0.000235744,0.000411141,-0.000160389,-5.16E-05,0.468114644,0.197562903,1.889950208
1.63E+18,1899980032,-0.000249083,0.000405765,-0.000161188,0.000652659,0.467346251,0.200048625,1.899980032
1.63E+18,1910000128,-0.000249877,0.000404181,-0.000161987,6.25E-05,0.464836329,0.204589427,1.910000128
1.63E+18,1921330176,-0.000239464,0.000392171,-0.000168112,-0.000862216,0.466350704,0.203937173,1.921330176
1.63E+18,1930660096,-0.000229666,0.000376269,-0.000173705,0.000118333,0.469810218,0.205597997,1.930660096
1.63E+18,1940020224,-0.000222022,0.000372121,-0.000173305,0.00076601,0.472841829,0.208300471,1.940020224
1.63E+18,1950080000,-0.000223577,0.000372309,-0.000175169,-0.000195493,0.472069144,0.211129934,1.95008
1.63E+18,1959990016,-0.000233753,0.00037103,-0.000181295,-0.000774877,0.467573166,0.211513862,1.959990016
1.63E+18,1970790144,-0.000246829,0.000372026,-0.000188419,-0.000700525,0.465986341,0.208961651,1.970790144
1.63E+18,1979960064,-0.000249257,0.000372881,-0.000191415,0.000579425,0.469180554,0.207569569,1.979960064
1.63E+18,1989970176,-0.000236532,0.000364729,-0.000190416,0.001104191,0.466918439,0.204871386,1.989970176
1.63E+18,1999940096,-0.000239173,0.000346719,-0.000186088,0.001726719,0.469216317,0.204025447,1.999940096
1.63E+18,2009950208,-0.000244536,0.000340401,-0.000180895,0.001280764,0.475553513,0.206636429,2.009950208
1.63E+18,2019980032,-0.000233719,0.00034515,-0.000179963,0.000802016,0.471704841,0.207994819,2.019980032
1.63E+18,2030040064,-0.000226887,0.000341003,-0.000178831,0.000795935,0.471188992,0.208571702,2.030040064
1.63E+18,2039970048,-0.000237646,0.000317639,-0.000179031,0.000320466,0.472804278,0.207729295,2.039970048
1.63E+18,2050030080,-0.000248475,0.000294331,-0.000179763,0.00081122,0.472198606,0.202892885,2.05003008
1.63E+18,2059970048,-0.000235527,0.000301964,-0.000175702,0.001775388,0.472281814,0.197246999,2.059970048
1.63E+18,2069950208,-0.000212724,0.00031347,-0.00017224,0.000932175,0.46972692,0.198900849,2.069950208
1.63E+18,2079960064,-0.000138709,0.000269838,-0.000157925,-0.000254752,0.468647122,0.203997254,2.079960064
1.63E+18,2089970176,-0.000121507,0.000275385,-0.000163984,-0.000628796,0.471958935,0.205869943,2.089970176
1.63E+18,2099940096,-0.00011173,0.000287638,-0.000169377,-0.000125254,0.468139231,0.20597361,2.099940096
1.63E+18,2109980160,-0.000107115,0.00029207,-0.000170376,0.000716776,0.465075493,0.204505816,2.10998016
1.63E+18,2120100096,-0.000100717,0.000288307,-0.000168512,0.001002146,0.46573776,0.205868572,2.120100096
1.63E+18,2130060032,-9.51E-05,0.000283988,-0.000165249,0.00146198,0.468102545,0.211252779,2.130060032
1.63E+18,2139950080,-8.76E-05,0.00028079,-0.000161055,0.001390765,0.471421897,0.212611854,2.13995008
1.63E+18,2150030080,-8.47E-05,0.000274809,-0.000158392,0.00118599,0.47153616,0.21263878,2.15003008
1.63E+18,2159960064,-9.05E-05,0.000272819,-0.000154863,0.001532924,0.470848978,0.206336141,2.159960064
1.63E+18,2169970176,-9.12E-05,0.00027464,-0.000150003,0.001514944,0.468512774,0.206750423,2.169970176
1.63E+18,2179960064,-8.21E-05,0.000275082,-0.000146407,0.001473978,0.46955809,0.207511887,2.179960064
1.63E+18,2190130176,-6.97E-05,0.000282535,-0.000139816,0.002365383,0.469630837,0.20565097,2.190130176
1.63E+18,2200000000,-5.91E-05,0.000291004,-0.000131427,0.002089968,0.472002417,0.204145819,2.2
1.63E+18,2209950208,-6.59E-05,0.000280549,-0.000125635,0.001705458,0.472349167,0.200321808,2.209950208
1.63E+18,2219930112,-7.18E-05,0.000264582,-0.000119376,0.001898556,0.470792264,0.19737865,2.219930112
1.63E+18,2230060032,-7.15E-05,0.000255409,-0.000114383,0.001270716,0.473863095,0.195012718,2.230060032
1.63E+18,2239970048,-7.17E-05,0.000251724,-0.000114116,0.000376176,0.474196821,0.196184382,2.239970048
1.63E+18,2250030080,-7.16E-05,0.000253371,-0.000113917,0.000975132,0.469382077,0.197433949,2.25003008
1.63E+18,2259970048,-7.38E-05,0.000254388,-0.000113318,0.000169831,0.46304056,0.199778557,2.259970048
1.63E+18,2270020096,-7.63E-05,0.000255901,-0.000119443,-0.000724629,0.462618679,0.201592997,2.270020096
1.63E+18,2279970048,-7.64E-05,0.000188485,-0.000102066,0.001161978,0.465576887,0.205835208,2.279970048
1.63E+18,2290080256,-7.06E-05,0.000180384,-9.65E-05,0.00182325,0.466548324,0.209092334,2.290080256
1.63E+18,2299940096,-7.37E-05,0.000175474,-9.45E-05,0.000404188,0.467864931,0.208856776,2.299940096
1.63E+18,2309970176,-8.68E-05,0.000169368,-0.000100002,-0.001043739,0.46963495,0.208096206,2.309970176
1.63E+18,2319940096,-0.000100536,0.000158346,-0.000109722,-0.001398695,0.467096865,0.206687778,2.319940096
1.63E+18,2330070016,-0.000100532,0.000155553,-0.000117113,-0.000368816,0.465170234,0.207733989,2.330070016
1.63E+18,2340010240,-0.000100514,0.000150631,-0.00011678,0.001308118,0.466374874,0.208834484,2.34001024
1.63E+18,2353920000,-0.00010539,0.000134988,-0.000111453,0.001770325,0.467135787,0.207834005,2.35392
1.63E+18,2361560064,-0.000107246,0.000133522,-0.000107325,0.001105515,0.46962899,0.206332341,2.361560064
1.63E+18,2379950080,-0.000108112,0.000165021,-0.000109323,0.000153243,0.472896814,0.20333676,2.37995008
1.63E+18,2389980160,-0.00013129,0.000167378,-0.000113983,-0.000871993,0.471832007,0.200726986,2.38998016
1.63E+18,2399940096,-0.00015175,0.000167616,-0.000119975,-0.000152389,0.464449286,0.20388858,2.399940096
1.63E+18,2409950208,-0.000162137,0.000162556,-0.000118577,0.001337662,0.464536041,0.202529535,2.409950208
1.63E+18,2420060160,-0.000168328,0.000162483,-0.000116114,0.000862892,0.471198529,0.201295659,2.42006016
1.63E+18,2430020096,-0.000181224,0.000149468,-0.000115049,0.000744495,0.469881296,0.206259131,2.430020096
1.63E+18,2440000000,-0.000198707,0.000130772,-0.000114782,0.000595448,0.467598766,0.207108721,2.44
1.63E+18,2450010112,-0.000201474,0.000129255,-0.00011405,0.000771022,0.47500366,0.200730801,2.450010112
1.63E+18,2459970048,-0.000204131,0.000123636,-0.00011385,0.000525499,0.474722624,0.196247876,2.459970048
1.63E+18,2469980160,-0.000207352,0.000114018,-0.000114383,0.000488373,0.468848616,0.204120606,2.46998016
1.63E+18,2479940096,-0.00027241,5.71E-05,-0.000101733,0.000426457,0.466712147,0.210234582,2.479940096
1.63E+18,2489980160,-0.00026811,7.28E-05,-0.000102865,0.000476573,0.46909216,0.207022503,2.48998016
1.63E+18,2499940096,-0.000272989,7.80E-05,-0.000103597,0.000534559,0.473655671,0.203519672,2.499940096
1.63E+18,2509960192,-0.000280475,7.52E-05,-0.000101533,0.001108641,0.472532898,0.201556191,2.509960192
1.63E+18,2520810240,-0.000274591,7.28E-05,-0.000102199,-3.46E-06,0.466375828,0.203966171,2.52081024
1.63E+18,2531900160,-0.00026372,7.02E-05,-0.00010646,-0.000109637,0.462303013,0.20586814,2.53190016
1.63E+18,2539950080,-0.000256371,7.08E-05,-0.000107592,0.000800445,0.461642683,0.203143001,2.53995008
1.63E+18,2550010112,-0.000243883,6.74E-05,-0.000107725,0.000511862,0.464733213,0.201340377,2.550010112
1.63E+18,2560520192,-0.00022846,5.40E-05,-0.00011152,-0.000445384,0.468715996,0.199577987,2.560520192
1.63E+18,2570040064,-0.000226046,5.12E-05,-0.000118111,-0.000608603,0.468868703,0.202710867,2.570040064
1.63E+18,2580000256,-0.000241218,6.23E-05,-0.00012377,-0.000600232,0.467546284,0.204885438,2.580000256
1.63E+18,2590010112,-0.000255988,7.06E-05,-0.000128564,-0.000101523,0.461971462,0.204858825,2.590010112
1.63E+18,2600010240,-0.000262856,6.90E-05,-0.000129296,0.00064549,0.462977946,0.203074232,2.60001024
1.63E+18,2610120192,-0.000265761,6.72E-05,-0.000130495,0.000189751,0.512246311,0.204313368,2.610120192
1.63E+18,2619960064,-0.000258786,7.88E-05,-0.000131227,0.000947311,0.6150738,0.195451215,2.619960064
1.63E+18,2630250240,-0.000240225,8.27E-05,-0.000127432,0.001663577,0.683408856,0.19324933,2.63025024
1.63E+18,2640060160,-0.000220922,6.36E-05,-0.00012124,0.002207988,0.716101825,0.191894233,2.64006016
1.63E+18,2649980160,-0.000191302,6.17E-05,-0.000111387,0.002999853,0.716343403,0.173356429,2.64998016
1.63E+18,2660000256,-0.000161951,8.29E-05,-9.47E-05,0.004772956,0.666606784,0.180793047,2.660000256
1.63E+18,2669990144,-0.000161059,9.23E-05,-7.20E-05,0.004920738,0.575447023,0.195547611,2.669990144
1.63E+18,2680040192,-0.000258139,6.95E-05,-4.55E-05,0.002856865,0.504309595,0.208688691,2.680040192
1.63E+18,2690040064,-0.000269984,6.68E-05,-3.73E-05,0.001933947,0.471725672,0.220109612,2.690040064
1.63E+18,2699980032,-0.000284376,7.66E-05,-3.70E-05,-0.000274009,0.439673483,0.229068562,2.699980032
1.63E+18,2710020096,-0.000295166,7.25E-05,-4.85E-05,-0.00244995,0.434021622,0.232395709,2.710020096
1.63E+18,2720000000,-0.000298235,6.37E-05,-6.58E-05,-0.002985468,0.423942894,0.236368403,2.72
1.63E+18,2729990144,-0.00030071,5.37E-05,-8.36E-05,-0.002817939,0.406701833,0.231467694,2.729990144
1.63E+18,2739980032,-0.000304004,4.43E-05,-9.87E-05,-0.002225315,0.396136343,0.230487064,2.739980032
1.63E+18,2749950208,-0.000297502,5.77E-05,-0.000111586,-0.001622868,0.400159836,0.244666204,2.749950208
1.63E+18,2760430080,-0.00027627,7.25E-05,-0.000119975,-0.000639609,0.404289246,0.22675252,2.76043008
1.63E+18,2770110208,-0.000259215,7.69E-05,-0.000125102,-0.00015655,0.414529681,0.215730622,2.770110208
1.63E+18,2779970048,-0.000255123,8.81E-05,-0.000125568,0.001078566,0.421202123,0.199653134,2.779970048
1.63E+18,2790020096,-0.000255208,9.18E-05,-0.000122838,0.001044151,0.421582907,0.174253553,2.790020096
1.63E+18,2799990016,-0.000263008,7.72E-05,-0.000118511,0.001856872,0.422116369,0.153091386,2.799990016
1.63E+18,2810020096,-0.000264841,6.90E-05,-0.000111853,0.001924719,0.421903938,0.138467699,2.810020096
1.63E+18,2820010240,-0.000260586,7.62E-05,-0.000103797,0.002715086,0.422328502,0.134280562,2.82001024
1.63E+18,2831250176,-0.000258597,8.45E-05,-8.93E-05,0.003847745,0.418952405,0.13817963,2.831250176
1.63E+18,2840000000,-0.000237184,0.000100174,-7.57E-05,0.003181272,0.413952142,0.154956669,2.84
1.63E+18,2849970176,-0.000204204,0.000110202,-6.42E-05,0.003107819,0.417507797,0.180152252,2.849970176
1.63E+18,2859980032,-0.000187412,9.51E-05,-5.10E-05,0.003335208,0.417187989,0.206921816,2.859980032
1.63E+18,2869940224,-0.000185292,7.68E-05,-4.21E-05,0.00160867,0.41474548,0.224475294,2.869940224
1.63E+18,2879960064,0.000372734,-8.36E-05,-3.02E-05,0.000151957,0.422687322,0.250515997,2.879960064
1.63E+18,2889960192,0.000366341,-0.000101589,-3.38E-05,-0.000320311,0.430446476,0.268717498,2.889960192
1.63E+18,2900030208,0.000351537,-0.00011845,-3.88E-05,-0.000396161,0.429886699,0.271321535,2.900030208
1.63E+18,2910020096,0.000339459,-0.000123629,-4.31E-05,-0.000326776,0.428892225,0.278330952,2.910020096
1.63E+18,2920010240,0.00032978,-0.000122287,-4.84E-05,-0.00046435,0.423824519,0.268630683,2.92001024
1.63E+18,2930130176,0.000333276,-0.000122062,-5.05E-05,0.000833436,0.427055836,0.247404933,2.930130176
1.63E+18,2939980032,0.000341043,-0.000118191,-4.71E-05,0.001405105,0.430202276,0.225227535,2.939980032
1.63E+18,2949970176,0.000328135,-0.000123821,-4.75E-05,-0.00021992,0.434381604,0.203306809,2.949970176
1.63E+18,2961790208,0.000312516,-0.000146893,-5.13E-05,0.000106892,0.444016099,0.180046514,2.961790208
1.63E+18,2969970176,0.000310627,-0.000160836,-4.63E-05,0.001274741,0.468663812,0.146841586,2.969970176
1.63E+18,2990040064,0.000309193,-0.000156143,-4.33E-05,0.001217461,0.478909582,0.140898272,2.990040064
1.63E+18,2999950080,0.000306958,-0.000144577,-4.18E-05,0.000699826,0.496844471,0.139928624,2.99995008
1.63E+18,3010150144,0.000301106,-0.000131952,-4.55E-05,-0.000704479,0.50141114,0.156219229,3.010150144
1.63E+18,3019990016,0.000293077,-0.000134964,-5.17E-05,-0.000296039,0.490088195,0.178688198,3.019990016
1.63E+18,3030010112,0.000284107,-0.000153947,-5.32E-05,0.000567727,0.482132912,0.193553299,3.030010112
1.63E+18,3040050176,0.000281663,-0.000156026,-5.33E-05,0.000504535,0.481582493,0.221583441,3.040050176
1.63E+18,3049990144,0.000279341,-0.000150346,-5.33E-05,0.000797674,0.470000386,0.250296265,3.049990144
1.63E+18,3060000256,0.000283982,-0.000155015,-5.04E-05,0.001528539,0.462437481,0.260094225,3.060000256
1.63E+18,3070070016,0.000303407,-0.00015714,-4.71E-05,0.00126393,0.461722016,0.266729116,3.070070016
1.63E+18,3080010240,-0.000279072,5.73E-05,-2.70E-05,-0.000653621,0.458446085,0.26073423,3.08001024
1.63E+18,3100020224,-0.000276652,4.83E-05,-3.05E-05,0.000537257,0.458249092,0.24773261,3.100020224
1.63E+18,3110050048,-0.000272121,4.38E-05,-2.72E-05,0.001539676,0.452483058,0.226843774,3.110050048
1.63E+18,3120060160,-0.000280976,3.85E-05,-2.26E-05,0.001332085,0.453741312,0.199918106,3.12006016
1.63E+18,3130220032,-0.000291808,3.54E-05,-2.42E-05,-0.000564644,0.459130198,0.178413108,3.130220032
1.63E+18,3140000256,-0.000293743,4.27E-05,-3.67E-05,-0.002324722,0.461826146,0.157525137,3.140000256
1.63E+18,3150310144,-0.000287234,4.21E-05,-4.95E-05,-0.001510719,0.473275244,0.145014271,3.150310144
1.63E+18,3159970048,-0.000269674,2.77E-05,-5.79E-05,-0.000800458,0.474552393,0.141961947,3.159970048
1.63E+18,3169980160,-0.000253414,2.49E-05,-6.60E-05,-0.001042429,0.477030993,0.150675029,3.16998016
1.63E+18,3180020224,-0.000249097,3.90E-05,-7.28E-05,-0.000445122,0.481722355,0.161339819,3.180020224
1.63E+18,3190020096,-0.000247096,5.28E-05,-7.44E-05,0.000930265,0.480993211,0.17211926,3.190020096
1.63E+18,3199950080,-0.000237402,6.74E-05,-6.94E-05,0.001948871,0.47882539,0.195239022,3.19995008
1.63E+18,3210000128,-0.000234841,7.98E-05,-6.57E-05,0.000878669,0.473218203,0.215632081,3.210000128
1.63E+18,3219960064,-0.000241713,8.95E-05,-6.59E-05,0.000563666,0.467995942,0.231879413,3.219960064
1.63E+18,3230000128,-0.000235353,9.93E-05,-6.44E-05,0.001080339,0.466875881,0.247095272,3.230000128
1.63E+18,3240090112,-0.00021349,0.000103871,-6.45E-05,0.000326386,0.462720573,0.257550925,3.240090112
1.63E+18,3250010112,-0.000196548,0.00010829,-6.82E-05,-0.000147348,0.459006667,0.257428229,3.250010112
1.63E+18,3259970048,-0.00019021,0.000113792,-7.22E-05,-3.90E-05,0.464376479,0.2522991,3.259970048
1.63E+18,3269970176,-0.000175746,0.000113858,-7.61E-05,-0.000141838,0.465389997,0.240214899,3.269970176
1.63E+18,3280040192,-0.000731252,0.000328968,-1.33E-05,0.000472054,0.463579208,0.226370618,3.280040192
1.63E+18,3290000128,-0.00071567,0.000335521,-1.21E-05,0.001084418,0.469404489,0.208267882,3.290000128
1.63E+18,3309980160,-0.000727365,0.000328612,-1.56E-05,3.26E-05,0.47192058,0.169890746,3.30998016
1.63E+18,3319930112,-0.000730902,0.00032,-1.36E-05,0.001629769,0.473628074,0.162131652,3.319930112
1.63E+18,3330000128,-0.000731745,0.000312706,-8.99E-06,0.001107342,0.47525236,0.157384962,3.330000128
1.63E+18,3340000256,-0.00074205,0.000314443,-1.03E-05,-9.47E-05,0.474168599,0.159573376,3.340000256
1.63E+18,3350010112,-0.000749343,0.000322963,-1.46E-05,-0.000215215,0.464495957,0.162798867,3.350010112
1.63E+18,3360080128,-0.000748388,0.000326931,-1.68E-05,0.000644011,0.467486888,0.173861146,3.360080128
1.63E+18,3370010112,-0.000746367,0.000316039,-1.44E-05,0.001305167,0.472500145,0.194969058,3.370010112
1.63E+18,3380000256,-0.000754369,0.000301797,-1.05E-05,0.001411971,0.473186791,0.210772872,3.380000256
1.63E+18,3390020096,-0.000768553,0.000304918,-5.13E-06,0.001840911,0.477027982,0.224037558,3.390020096
1.63E+18,3400040192,-0.000772627,0.000309625,3.13E-06,0.00234681,0.478879392,0.239876047,3.400040192
1.63E+18,3410100224,-0.000769056,0.000307579,9.32E-06,0.001410141,0.47148639,0.249394685,3.410100224
1.63E+18,3419980032,-0.00076265,0.000321984,8.26E-06,-1.68E-05,0.465402037,0.249530762,3.419980032
1.63E+18,3430390016,-0.00076084,0.000338746,6.72E-06,0.000788926,0.463701099,0.243929908,3.430390016
1.63E+18,3439970048,-0.000768755,0.000333805,8.99E-06,0.000880111,0.461573452,0.238259986,3.439970048
1.63E+18,3450020096,-0.000776546,0.000322346,4.86E-06,-0.001064317,0.460832357,0.225596368,3.450020096
1.63E+18,3460010240,-0.000788751,0.000328894,-4.73E-06,-0.001157581,0.465204418,0.208789557,3.46001024
1.63E+18,3470030080,-0.000795207,0.000340717,-9.92E-06,7.53E-05,0.465546876,0.191476166,3.47003008
1.63E+18,3480010240,-0.00136236,0.000563726,5.61E-05,0.000983533,0.470206261,0.176954329,3.48001024
1.63E+18,3490010112,-0.001342709,0.000585004,5.64E-05,0.000678975,0.473524839,0.165413395,3.490010112
1.63E+18,3500000256,-0.001337816,0.000597677,5.72E-05,0.000871702,0.470098883,0.160407156,3.500000256
1.63E+18,3509990144,-0.001338596,0.000610232,5.83E-05,0.000960828,0.469401538,0.161622986,3.509990144
1.63E+18,3519950080,-0.001329377,0.000623483,6.12E-05,0.001533812,0.470995694,0.168190703,3.51995008
1.63E+18,3530210048,-0.001321185,0.00062307,6.62E-05,0.001562899,0.475347221,0.180272669,3.530210048
1.63E+18,3540030208,-0.001316227,0.000612756,7.02E-05,0.001566276,0.472245276,0.194347903,3.540030208
1.63E+18,3550020096,-0.001316702,0.000592117,7.50E-05,0.001307854,0.468700558,0.213233799,3.550020096
1.63E+18,3560130048,-0.001322086,0.000569811,7.66E-05,0.0006451,0.467306107,0.224577501,3.560130048
1.63E+18,3570000128,-0.001328913,0.000566069,7.72E-05,0.000926488,0.467347473,0.232187077,3.570000128
1.63E+18,3579970048,-0.00134299,0.000568806,7.79E-05,0.000159783,0.468358099,0.23903054,3.579970048
1.63E+18,3589970176,-0.00136024,0.0005557,7.06E-05,-0.00141401,0.47047171,0.243221983,3.589970176
1.63E+18,3599970048,-0.001372505,0.000539788,6.21E-05,-0.000713661,0.470013112,0.241485491,3.599970048
1.63E+18,3610020096,-0.001383932,0.000531878,5.77E-05,-0.000250436,0.466066241,0.232443526,3.610020096
1.63E+18,3619970048,-0.001386115,0.000527744,5.51E-05,0.000468714,0.465400517,0.222608328,3.619970048
1.63E+18,3630020096,-0.001389566,0.000516814,5.76E-05,0.0014188,0.46682772,0.210583895,3.630020096
1.63E+18,3639990016,-0.001392496,0.00050621,6.02E-05,0.000774186,0.471085012,0.197826207,3.639990016
1.63E+18,3649970176,-0.001390804,0.000501258,5.89E-05,0.00025971,0.473632962,0.184448466,3.649970176
1.63E+18,3659960064,-0.00139675,0.000486352,5.87E-05,0.000989571,0.501926839,0.17841886,3.659960064
1.63E+18,3669960192,-0.001398796,0.000475603,6.36E-05,0.002033833,0.63391453,0.17103973,3.669960192
1.63E+18,3679980032,-0.001961227,0.000689703,9.32E-05,0.003161823,0.957303524,0.158780247,3.679980032
1.63E+18,3690000128,-0.001924515,0.000693064,0.000114116,0.006405018,1.55386281,0.166105017,3.690000128
1.63E+18,3700010240,-0.001845384,0.000699583,0.0001518,0.009597698,2.289831162,0.134798273,3.70001024
1.63E+18,3709970176,-0.001722016,0.000705996,0.000196475,0.010164341,3.032732248,0.057203628,3.709970176
1.63E+18,3719970048,-0.001592549,0.000701793,0.000243479,0.010999063,3.728860617,0.090183586,3.719970048
1.63E+18,3730010112,-0.00146396,0.00069568,0.000295478,0.011793602,4.15025425,0.199995488,3.730010112
1.63E+18,3740000256,-0.001347492,0.000683016,0.000344946,0.010085849,4.316601276,0.226968974,3.740000256
1.63E+18,3753770240,-0.001178579,0.000635699,0.000391817,0.002903055,4.130795956,0.270907998,3.75377024
1.63E+18,3769950208,-0.00108024,0.000605574,0.000409527,0.006480068,4.124623775,0.135121197,3.769950208
1.63E+18,3780000256,-0.000986441,0.000586411,0.000457997,0.013713355,4.400039196,0.150949255,3.780000256
1.63E+18,3790020096,-0.000898388,0.000557119,0.000548345,0.023143765,5.018568516,0.190343618,3.790020096
1.63E+18,3799960064,-0.000800394,0.000512052,0.000684898,0.030030491,6.050476551,0.280420989,3.799960064
1.63E+18,3810210048,-0.000671248,0.000462149,0.000800879,0.018361166,7.017710686,0.581536651,3.810210048
1.63E+18,3820000256,-0.000495019,0.000385737,0.000833769,0.001739538,6.878674507,0.601389289,3.820000256
1.63E+18,3830000128,-0.000311663,0.000278905,0.000801545,-0.008933129,6.024882793,0.681987047,3.830000128
1.63E+18,3839960064,-0.000160064,0.000180995,0.000732968,-0.013236298,5.23846674,0.589579046,3.839960064
1.63E+18,3851770112,-8.23E-05,0.000144634,0.000682235,-0.005321044,4.465474129,0.226734132,3.851770112
1.63E+18,3860000256,-3.49E-05,0.000153118,0.000684366,0.005671828,4.180469036,0.188142017,3.860000256
1.63E+18,3870050048,2.62E-05,0.00012569,0.000747283,0.019060167,4.55992651,0.293630898,3.870050048
1.63E+18,3879970048,-0.000549628,0.0002877,0.000872984,0.03567241,5.391071796,0.265157521,3.879970048
1.63E+18,3889950208,-0.000599979,0.000287825,0.001078913,0.042616611,6.412648201,0.118618444,3.889950208
1.63E+18,3900000256,-0.000577261,0.000322566,0.001256612,0.029924699,6.680610657,0.25223729,3.900000256
1.63E+18,3909960192,-0.000434078,0.000341199,0.001348425,0.014233652,5.965700626,0.34840554,3.909960192
1.63E+18,3919990016,-0.00030384,0.000316725,0.001408212,0.013717441,5.054056168,0.257318228,3.919990016
1.63E+18,3930090240,-0.000283439,0.00024525,0.0014935,0.02165542,4.307900429,0.218209997,3.93009024
1.63E+18,3940000256,-0.000328936,0.000166299,0.001649361,0.039457004,4.001158714,0.054402474,3.940000256
1.63E+18,3950040064,-0.000398548,0.000141697,0.001906156,0.058419156,4.380684853,-0.001161314,3.950040064
1.63E+18,3960010240,-0.00042752,0.000195561,0.002221274,0.06561619,5.052534103,0.291575909,3.96001024
1.63E+18,3970060032,-0.000372888,0.000291156,0.002550839,0.066673303,5.586833,0.482609749,3.970060032
1.63E+18,3979980032,-0.000255166,0.000393344,0.002870018,0.063106444,5.767349243,0.458558887,3.979980032
1.63E+18,3991550208,-0.000126533,0.000444171,0.003157172,0.055265303,5.659039021,0.771188974,3.991550208
1.63E+18,3999960064,1.12E-06,0.000405076,0.003416496,0.052955365,5.222193718,0.863131523,3.999960064
1.63E+18,4009970176,0.000105444,0.000347573,0.00369799,0.061330669,4.627315998,0.370092213,4.009970176
1.63E+18,4020010240,0.000138969,0.000344144,0.004032148,0.071290451,4.430289745,0.100466467,4.02001024
1.63E+18,4030020096,0.000145531,0.000350773,0.00440765,0.078672666,4.512346745,0.087306984,4.030020096
1.63E+18,4039950080,0.000147867,0.000301273,0.004830822,0.088543615,4.684017181,0.320124745,4.03995008
1.63E+18,4050060032,0.000168985,0.000252517,0.005265311,0.084444544,5.515323162,0.171364635,4.050060032
1.63E+18,4060010240,0.00024146,0.000292481,0.005649333,0.073238561,5.996768475,0.085835174,4.06001024
1.63E+18,4069960192,0.000342202,0.000345948,0.00597956,0.062413868,5.579351902,0.461723655,4.069960192
1.63E+18,4079960064,0.000641794,0.000959967,0.006418439,0.057188784,5.027871132,0.703023553,4.079960064
1.63E+18,4089970176,0.000635542,0.00098459,0.006738011,0.070651317,4.617802143,0.609693289,4.089970176
1.63E+18,4099940096,0.000539404,0.000993129,0.007131284,0.082542664,4.467720985,0.288124233,4.099940096
1.63E+18,4110020096,0.000512393,0.000996635,0.007552385,0.085546277,4.500910282,0.33149457,4.110020096
1.63E+18,4119980032,0.0005852,0.001019566,0.007990195,0.091515495,4.724757671,0.561097622,4.119980032
1.63E+18,4134080000,0.000674685,0.001045219,0.00847008,0.099850906,5.091661453,0.623149633,4.13408
1.63E+18,4139970048,0.000782218,0.001058851,0.00896967,0.100671659,5.286883831,0.630719662,4.139970048
1.63E+18,4155210240,0.000894317,0.001061691,0.0094622,0.098902754,5.312419415,0.504966557,4.15521024
1.63E+18,4159990016,0.000975439,0.001044434,0.0099508,0.098311274,5.175533772,0.537343919,4.159990016
1.63E+18,4170100224,0.001051459,0.000999874,0.010438599,0.098771668,4.936335564,0.55269134,4.170100224
1.63E+18,4179960064,0.001152901,0.000971099,0.01093525,0.101509106,4.786204338,0.284178197,4.179960064
1.63E+18,4190110208,0.001185625,0.001016554,0.011456997,0.107787883,4.829810619,0.092148021,4.190110208
1.63E+18,4200010240,0.001149837,0.001104039,0.012010762,0.111918579,4.954206944,0.132162049,4.20001024
1.63E+18,4210040064,0.001133519,0.001184629,0.012556336,0.107570444,5.075654984,0.462612927,4.210040064
1.63E+18,4219970048,0.001172795,0.001236314,0.013095448,0.110728005,5.068341732,0.513807714,4.219970048
1.63E+18,4229980160,0.001332816,0.001322336,0.014234972,0.114258349,5.033257961,0.527910113,4.22998016
1.63E+18,4249990144,0.001441455,0.001386716,0.014809887,0.117952936,4.780990124,0.48478049,4.249990144
1.63E+18,4259980032,0.001512621,0.001485945,0.01542374,0.12777415,4.602058411,0.650303364,4.259980032
1.63E+18,4269960192,0.001563933,0.001535766,0.016088648,0.137259597,4.663125515,0.544390082,4.269960192
1.63E+18,4280020224,0.001874619,0.00210889,0.017186041,0.138180277,4.860972404,0.474925518,4.280020224
1.63E+18,4290030080,0.002004656,0.002115622,0.017857851,0.134657556,4.830159187,0.769677222,4.29003008
1.63E+18,4299990016,0.002177216,0.00207783,0.018543765,0.142085769,4.87544775,0.630267143,4.299990016
1.63E+18,4310000128,0.002314076,0.002021319,0.019266349,0.146183642,5.14900589,0.563839555,4.310000128
1.63E+18,4319980032,0.002395668,0.002003729,0.019983464,0.142967392,5.11976862,0.661633313,4.319980032
1.63E+18,4330100224,0.002487207,0.001989885,0.020688321,0.14142409,4.976944923,0.704106688,4.330100224
1.63E+18,4340030208,0.002539831,0.001994282,0.021396629,0.143607133,4.915664673,0.887790322,4.340030208
1.63E+18,4350010112,0.002558404,0.001986938,0.022125629,0.147303934,4.891263485,0.796301067,4.350010112
1.63E+18,4379980032,0.002689719,0.001706639,0.024280009,0.144535029,4.778333187,0.881257653,4.379980032
1.63E+18,4389990144,0.002768065,0.001607124,0.024987395,0.140325653,4.811131001,0.605965018,4.389990144
1.63E+18,4399980032,0.00293779,0.001591473,0.02565889,0.131812875,4.785982609,0.535429358,4.399980032
1.63E+18,4409990144,0.003184833,0.00169324,0.026290968,0.126558783,4.79790163,0.564096689,4.409990144
1.63E+18,4420010240,0.003455808,0.001831205,0.026916245,0.126947405,4.764708996,0.558401704,4.42001024
1.63E+18,4430020096,0.003669258,0.001917401,0.027539051,0.126206097,4.832367897,0.790704429,4.430020096
1.63E+18,4440020224,0.003805021,0.001919676,0.028190933,0.135811795,4.856688499,0.69104588,4.440020224
1.63E+18,4449980160,0.003853724,0.001911847,0.02888999,0.142749413,4.841685295,0.633893609,4.44998016
1.63E+18,4459970048,0.003847286,0.00189766,0.029606471,0.144620916,4.833729744,0.634360433,4.459970048
1.63E+18,4480010240,0.004350238,0.001649117,0.031528418,0.147426523,4.726645947,0.681437314,4.48001024
1.63E+18,4490010112,0.004237407,0.001544449,0.032258822,0.144184773,4.693029404,0.658007383,4.490010112
1.63E+18,4499970048,0.004064103,0.001364841,0.032962796,0.137894645,4.674978256,0.813080311,4.499970048
1.63E+18,4509990144,0.003880827,0.001164984,0.033641201,0.133621078,4.634252071,0.692456543,4.509990144
1.63E+18,4519960064,0.003748075,0.001033757,0.034292573,0.127812092,4.595687389,0.42311275,4.519960064
1.63E+18,4529990144,0.00367031,0.001010764,0.034925229,0.126585223,4.699674606,0.21284914,4.529990144
1.63E+18,4539960064,0.00368929,0.001018232,0.035538372,0.118981341,4.856379509,0.337409496,4.539960064
1.63E+18,4559950080,0.004084517,0.001064369,0.036621018,0.111216437,4.745163441,0.375706524,4.55995008
1.63E+18,4569970176,0.004230268,0.001139506,0.037186677,0.115256627,4.80656147,0.55661881,4.569970176
1.63E+18,4599970048,0.00423694,0.001359647,0.038940951,0.123302461,4.53412962,0.651370704,4.599970048
1.63E+18,4610000128,0.004090749,0.001356874,0.039581619,0.130139062,4.565811157,0.61440587,4.610000128
1.63E+18,4619960064,0.003980572,0.001301294,0.040235507,0.130876841,4.613602638,0.775436521,4.619960064
1.63E+18,4630230016,0.003881589,0.001231743,0.040900289,0.135037664,4.541379929,0.779965639,4.630230016
1.63E+18,4639970048,0.003748267,0.001213291,0.041592393,0.139904308,4.520129681,0.509480834,4.639970048
1.63E+18,4649960192,0.00359488,0.001286552,0.042277957,0.13266795,4.520782948,0.49634409,4.649960192
1.63E+18,4660020224,0.003534234,0.001459904,0.04289445,0.11805595,4.396315098,0.834867418,4.660020224
1.63E+18,4669990144,0.003565212,0.001670199,0.043469348,0.115762761,4.291966438,0.989039123,4.669990144
1.63E+18,4679990016,0.004176351,0.001533459,0.044505012,0.118830514,4.606328964,0.717729032,4.679990016
1.63E+18,4689980160,0.004222976,0.001548992,0.045090181,0.115837903,4.947704792,0.414102465,4.68998016
1.63E+18,4699970048,0.00428958,0.001473504,0.045635363,0.105840779,4.972253323,0.310379088,4.699970048
1.63E+18,4709950208,0.004413154,0.001378573,0.04613497,0.09855497,4.781859398,0.466801703,4.709950208
1.63E+18,4719970048,0.004562361,0.001307951,0.046609357,0.094904975,4.604100227,0.791153312,4.719970048
1.63E+18,4739970048,0.004674708,0.001230976,0.047529779,0.090919745,4.404938221,0.813367367,4.739970048
1.63E+18,4749990144,0.004554842,0.001124138,0.047987795,0.092702224,4.427609921,1.036954522,4.749990144
1.63E+18,4759960064,0.004343753,0.000950109,0.048463696,0.096242031,4.405669689,0.873142898,4.759960064
1.63E+18,4770000128,0.004036507,0.000767533,0.048959941,0.099388356,4.574723721,0.629034102,4.770000128
1.63E+18,4800000000,0.003120281,0.000706436,0.050290332,0.075872011,4.331959724,0.16263409,4.8
1.63E+18,4810390016,0.003000916,0.000883092,0.050661971,0.073625918,4.131882668,0.079133146,4.810390016
1.63E+18,4819990016,0.002972873,0.00101217,0.051007467,0.065722405,4.153277874,0.018051246,4.819990016
1.63E+18,4830110208,0.003053822,0.000977462,0.051296171,0.054256219,4.109619617,0.109286174,4.830110208
1.63E+18,4842030080,0.003181343,0.000809971,0.0515356,0.046757186,4.215212822,0.46361044,4.84203008
1.63E+18,4849970176,0.003229814,0.000645063,0.051780083,0.05332127,4.39270401,0.160036787,4.849970176
1.63E+18,4859980032,0.003166357,0.000561744,0.052058344,0.055185358,4.715448856,0.164691105,4.859980032
1.63E+18,4869980160,0.003071334,0.000542279,0.052300899,0.045002146,4.768056393,0.480836779,4.86998016
1.63E+18,4880000000,0.003583249,0.000290487,0.052983954,0.049841072,4.484146595,-0.193907917,4.88
1.63E+18,4890000128,0.003565234,0.000400619,0.053235733,0.049203516,4.42383337,-0.466094851,4.890000128
1.63E+18,4899950080,0.003632891,0.000547869,0.053441362,0.036700103,4.400516987,0.104166083,4.89995008
1.63E+18,4910070016,0.003886516,0.000589604,0.053579498,0.025395124,4.192517281,0.492252171,4.910070016
1.63E+18,4920050176,0.004122847,0.000549933,0.053702674,0.030165185,3.975854874,0.222320572,4.920050176
1.63E+18,4930030080,0.004157892,0.000502419,0.053895205,0.043545871,4.355031013,-0.02487039,4.93003008
1.63E+18,4939970048,0.004030132,0.000498231,0.054097984,0.035723239,4.85457468,0.534592688,4.939970048
1.63E+18,4950090240,0.003814113,0.000450478,0.054246053,0.027721751,4.655600548,0.977772534,4.95009024
1.63E+18,4959960064,0.003511984,0.000245307,0.054418259,0.038770262,4.489017487,0.839714587,4.959960064
1.63E+18,4969980160,0.003126322,-7.89E-05,0.054643782,0.046640706,4.554635048,0.505175471,4.96998016
1.63E+18,4979990016,0.002771932,-0.000430961,0.05486451,0.038426015,4.542191029,0.43504864,4.979990016
1.63E+18,4989970176,0.002562659,-0.00072298,0.055002593,0.020333965,4.052755356,0.30826053,4.989970176
1.63E+18,5001760256,0.002454971,-0.000917409,0.055075787,0.013584514,3.756326914,-0.098819137,5.001760256
1.63E+18,5010020096,0.002361687,-0.000963754,0.055131499,0.00758449,4.079206944,-0.047460563,5.010020096
1.63E+18,5020010240,0.002285994,-0.000900922,0.055125055,-0.006155262,4.168104172,0.116279267,5.02001024
1.63E+18,5030160128,0.002240909,-0.000859789,0.055055256,-0.017901588,4.238250256,0.055828419,5.030160128
1.63E+18,5040010240,0.002179436,-0.00086897,0.054947164,-0.022810364,4.288738251,0.074454039,5.04001024
1.63E+18,5049960192,0.00209765,-0.000957141,0.054827239,-0.024073254,4.151803017,-0.064452082,5.049960192
1.63E+18,5059980032,0.002095155,-0.001086924,0.054696007,-0.026887314,4.181441307,-0.437653542,5.059980032
1.63E+18,5069950208,0.00217443,-0.001194711,0.054538844,-0.033780442,4.174961567,-0.542635381,5.069950208
1.63E+18,5080010240,0.002878451,-0.001546619,0.054789829,-0.041242944,4.101551056,-0.336131543,5.08001024
1.63E+18,5089980160,0.003047349,-0.001694,0.054571963,-0.041730444,4.175648212,0.177472979,5.08998016
1.63E+18,5099990016,0.003070498,-0.001976928,0.054382883,-0.032772877,4.115108013,0.342157185,5.099990016
1.63E+18,5109960192,0.002815677,-0.00224618,0.054261958,-0.019507734,4.499278545,-0.209010914,5.109960192
1.63E+18,5120000000,0.002322073,-0.002347236,0.054184393,-0.016422978,4.672104836,-0.267839521,5.12
1.63E+18,5130070016,0.001855385,-0.002286962,0.054091539,-0.021318028,4.327642441,-0.195530415,5.130070016
1.63E+18,5140000256,0.001483986,-0.00214303,0.053997817,-0.016574745,4.060636997,-0.334690481,5.140000256
1.63E+18,5149960192,0.001139601,-0.002079313,0.053939656,-0.010050045,3.953453302,-0.864125729,5.149960192
1.63E+18,5161180160,0.000897784,-0.00216288,0.05385343,-0.026093278,4.035729408,-0.511171818,5.16118016
1.63E+18,5170020096,0.000862401,-0.002240247,0.053661159,-0.04242791,3.786283016,0.066677965,5.170020096
1.63E+18,5179980032,0.000981268,-0.002139403,0.053461312,-0.035041478,3.628591299,-0.409358144,5.179980032
1.63E+18,5189970176,0.001056694,-0.001807681,0.053283544,-0.037446546,4.030550003,-0.526305854,5.189970176
1.63E+18,5199980032,0.001119302,-0.00137556,0.053059834,-0.04758081,4.33334446,-0.008671424,5.199980032
1.63E+18,5210160128,0.001227185,-0.001129572,0.052801872,-0.049975662,4.096550465,0.585892141,5.210160128
1.63E+18,5219970048,0.001111775,-0.001523892,0.05253439,-0.009967764,4.091529369,0.448444188,5.219970048
1.63E+18,5239940096,0.000936598,-0.001920997,0.052490034,-0.009344622,3.99481225,-0.035214391,5.239940096
1.63E+18,5249980160,0.00075117,-0.002134083,0.052428462,-0.015402199,4.247626781,-0.066170029,5.24998016
1.63E+18,5260000256,0.000484509,-0.00213754,0.05231271,-0.028479909,4.080371857,0.429729819,5.260000256
1.63E+18,5269990144,0.00022209,-0.002093289,0.052159325,-0.030784008,3.678341866,0.030104389,5.269990144
1.63E+18,5290010112,0.000268798,-0.002216461,0.052292496,-0.046222273,3.94563818,-0.666864395,5.290010112
1.63E+18,5300530176,0.000313955,-0.002271913,0.051968363,-0.073287164,3.673906326,-0.390533686,5.300530176
1.63E+18,5309980160,0.000654218,-0.0024392,0.05157633,-0.077132785,3.370196104,-0.778039038,5.30998016
1.63E+18,5319960064,0.001006494,-0.002531927,0.05117292,-0.080820423,3.864659309,-0.727351248,5.319960064
1.63E+18,5330100224,0.001365765,-0.002491783,0.050732668,-0.091099342,4.502315044,-0.116359882,5.330100224
1.63E+18,5339990016,0.001845103,-0.002476588,0.05023661,-0.098814894,4.188706398,0.392489105,5.339990016
1.63E+18,5349980160,0.002218245,-0.002528953,0.049780036,-0.079130189,3.82876873,0.20548293,5.34998016
1.63E+18,5359980032,0.00236119,-0.002616804,0.049471482,-0.050846724,4.112034321,-0.382861435,5.359980032
1.63E+18,5369990144,0.002463634,-0.002769267,0.049217782,-0.053493956,3.940602779,-0.68972069,5.369990144
1.63E+18,5379980032,0.002661029,-0.002901901,0.048898773,-0.066088057,3.154562712,-0.690082073,5.379980032
1.63E+18,5390020096,0.00281824,-0.002826967,0.048585024,-0.057305085,3.127070427,-0.605949223,5.390020096
1.63E+18,5399990016,0.002928864,-0.002586991,0.048307855,-0.054747526,3.64784646,-0.49907732,5.399990016
1.63E+18,5410150144,0.003137902,-0.002358488,0.048024291,-0.055360827,3.881810427,-0.826179385,5.410150144
1.63E+18,5419970048,0.003399528,-0.002243294,0.047730606,-0.059047266,4.319512367,-0.760676026,5.419970048
1.63E+18,5430040064,0.003649914,-0.002216297,0.047407852,-0.066104252,4.360341072,-0.129421443,5.430040064
1.63E+18,5439970048,0.003977722,-0.002276591,0.047055689,-0.069173412,4.148397446,-0.133030638,5.439970048
1.63E+18,5449960192,0.00435557,-0.002428882,0.046696528,-0.071179713,4.070520401,-0.445844084,5.449960192
1.63E+18,5459950080,0.004657449,-0.002619928,0.046321402,-0.075572372,3.934719563,-0.553700924,5.45995008
1.63E+18,5470010112,0.004884115,-0.002801153,0.045904839,-0.08675412,3.581222296,-0.207534209,5.470010112
1.63E+18,5479990016,0.005628371,-0.00323708,0.04589751,-0.091238443,3.331303835,-0.202956513,5.479990016
1.63E+18,5489980160,0.00578738,-0.003392823,0.045437046,-0.090596521,3.625739098,-0.594103277,5.48998016
1.63E+18,5500010240,0.005929501,-0.003437709,0.04497179,-0.09406736,3.89972496,-0.778215766,5.50001024
1.63E+18,5509940224,0.006080261,-0.003454294,0.044470143,-0.103568704,3.901238203,-0.627509952,5.509940224
1.63E+18,5520040192,0.006201891,-0.00363363,0.043915667,-0.110752639,3.729379892,-0.692417681,5.520040192
1.63E+18,5530060032,0.006138869,-0.003899343,0.04340489,-0.095672997,3.769732952,-1.076165557,5.530060032
1.63E+18,5540040192,0.005908816,-0.004021892,0.04291747,-0.101271785,3.841150284,-0.806981266,5.540040192
1.63E+18,5550280192,0.005738742,-0.004029165,0.042378356,-0.110490625,3.644891739,-0.832675874,5.550280192
1.63E+18,5580010240,0.005917938,-0.004029196,0.040687112,-0.109987779,3.85991931,-0.831530213,5.58001024
1.63E+18,5589980160,0.006122994,-0.004027451,0.040084187,-0.124487984,3.634371042,-0.844459951,5.58998016
1.63E+18,5599950080,0.006314518,-0.003907579,0.039474602,-0.115381995,3.540015936,-0.823011696,5.59995008
1.63E+18,5610030080,0.006260054,-0.003704216,0.038945726,-0.097614142,3.856956482,-0.40956676,5.61003008
1.63E+18,5619940096,0.005968774,-0.00365608,0.038511852,-0.081484315,4.103796959,-0.665503621,5.619940096
1.63E+18,5630060032,0.005695779,-0.003796566,0.038097452,-0.087362453,3.937544346,-0.679332256,5.630060032
1.63E+18,5639980032,0.005531363,-0.003845108,0.037629684,-0.093689075,3.181315899,-0.372784108,5.639980032
1.63E+18,5649980160,0.005312469,-0.003614264,0.036734581,-0.096468009,3.143714428,-0.349058926,5.64998016
1.63E+18,5659970048,0.005267705,-0.003485633,0.036205043,-0.109515875,2.767215252,-0.254159749,5.659970048
1.63E+18,5680030208,0.005835956,-0.00369223,0.03610027,-0.110412312,2.881040573,-0.26138559,5.680030208
1.63E+18,5689990144,0.005885379,-0.003720714,0.03553012,-0.115938388,3.303085327,-0.036751084,5.689990144
1.63E+18,5700020224,0.006075719,-0.003865644,0.034925744,-0.120625784,3.19416213,-0.385873348,5.700020224
1.63E+18,5709970176,0.006315725,-0.004060917,0.034335654,-0.112377958,3.419600964,-1.027022719,5.709970176
1.63E+18,5719940096,0.006419719,-0.004154527,0.033798267,-0.103887184,4.22136879,-0.952902317,5.719940096
1.63E+18,5730010112,0.00651757,-0.004107728,0.033274186,-0.104275848,4.210164547,-0.956167161,5.730010112
1.63E+18,5739960064,0.006695063,-0.003968758,0.032736652,-0.108463261,3.603150129,-0.925882518,5.739960064
1.63E+18,5749980160,0.006828029,-0.00382333,0.032171829,-0.113123868,3.451475859,-0.551107347,5.74998016
1.63E+18,5760360192,0.006831312,-0.003723187,0.031603543,-0.112855962,3.423674107,-0.635747552,5.760360192
1.63E+18,5770010112,0.006712335,-0.003726517,0.031016618,-0.120845345,3.299390793,-0.351292312,5.770010112
1.63E+18,5779990016,0.006498308,-0.003904503,0.030402597,-0.12040634,3.05139637,-0.108680092,5.779990016
1.63E+18,5790010112,0.0062147,-0.0042366,0.029836609,-0.109432701,3.185419321,-0.538647234,5.790010112
1.63E+18,5800010240,0.005944849,-0.004580812,0.029284318,-0.113017424,3.541022301,-0.940386772,5.80001024
1.63E+18,5810100224,0.005816484,-0.004858235,0.028664661,-0.131153726,3.645354509,-0.637598336,5.810100224
1.63E+18,5819960064,0.005816326,-0.005041688,0.027973047,-0.138776459,3.478904486,-0.405030102,5.819960064
1.63E+18,5840010240,0.00569307,-0.005317674,0.026591256,-0.143558731,3.166279554,-0.907284677,5.84001024
1.63E+18,5850000128,0.005573772,-0.005490291,0.025842305,-0.151421547,3.292577744,-0.902818143,5.850000128
1.63E+18,5870030080,0.005328169,-0.005969269,0.024301223,-0.155270414,2.82307744,-1.78798151,5.87003008
1.63E+18,5880040192,0.004907243,-0.006640682,0.023978595,-0.159371599,3.126127481,-1.649124384,5.880040192
1.63E+18,5890000128,0.004708631,-0.00667038,0.02318015,-0.158401343,3.328276873,-1.666585445,5.890000128
1.63E+18,5900060160,0.004477931,-0.006589165,0.022397605,-0.153464691,3.340383768,-1.73379302,5.90006016
1.63E+18,5910030080,0.004200965,-0.006414935,0.021654588,-0.145546547,3.315566063,-1.723996401,5.91003008
1.63E+18,5919990016,0.003971296,-0.006329633,0.020915014,-0.151337008,3.306497335,-1.322240353,5.919990016
1.63E+18,5930210048,0.003880861,-0.006275493,0.020117444,-0.161596271,2.899216414,-0.813680172,5.930210048
1.63E+18,5940010240,0.003862465,-0.006200608,0.019332174,-0.150953097,2.585501909,-0.992982149,5.94001024
1.63E+18,5949970176,0.003782925,-0.00609605,0.018614261,-0.138260987,2.679411888,-1.322644234,5.949970176
1.63E+18,5989970176,0.003698313,-0.006527563,0.015951642,-0.114805213,3.279681444,-0.656677604,5.989970176
1.63E+18,6000000000,0.003704202,-0.006712964,0.015365817,-0.119125992,3.255615473,-0.279898673,6
1.63E+18,6009970176,0.003730906,-0.00697547,0.014745568,-0.124948969,2.876302481,-0.067199945,6.009970176
1.63E+18,6019990016,0.003706411,-0.007199509,0.014142424,-0.113812977,2.330800056,-0.619786978,6.019990016
1.63E+18,6030070016,0.003596469,-0.007320107,0.013615705,-0.100371529,2.260018349,-1.610924602,6.030070016
1.63E+18,6039990016,0.003516209,-0.007395866,0.013086986,-0.112261561,2.838065863,-1.979391575,6.039990016
1.63E+18,6050020096,0.003616589,-0.007353261,0.012451681,-0.133926942,2.837929964,-1.439704061,6.050020096
1.63E+18,6059960064,0.003834427,-0.007250256,0.011772499,-0.130710027,2.727276325,-1.084416747,6.059960064
1.63E+18,6069990144,0.003953921,-0.007199108,0.011168807,-0.114009618,3.048703194,-0.972137928,6.069990144
1.63E+18,6080020224,0.003712497,-0.007821542,0.011074324,-0.112280578,3.241998672,-1.085151792,6.080020224
1.63E+18,6089990144,0.003847212,-0.007880026,0.010483207,-0.121411949,3.041177511,-1.578461528,6.089990144
1.63E+18,6099970048,0.004155506,-0.00770088,0.009839097,-0.130602152,2.482898951,-1.16433847,6.099970048
1.63E+18,6109970176,0.004473792,-0.007427797,0.009208566,-0.119058164,2.570755243,-0.615094244,6.109970176
1.63E+18,6119990016,0.004748323,-0.007396368,0.008632685,-0.11223974,2.971064806,-0.365585178,6.119990016
1.63E+18,6130040064,0.004879003,-0.007654792,0.008084093,-0.104115043,2.862487555,-0.384127617,6.130040064
1.63E+18,6139990016,0.004834797,-0.008018401,0.007620384,-0.084098691,2.870031118,-0.696343422,6.139990016
1.63E+18,6149980160,0.004758924,-0.008309519,0.007212932,-0.082896756,3.163683414,-0.897423446,6.14998016
1.63E+18,6180020224,0.00527366,-0.00845,0.005578868,-0.1099847,2.687027693,-1.052608252,6.180020224
1.63E+18,6189970176,0.005056574,-0.008613597,0.005043522,-0.103508366,2.360145092,-1.048327923,6.189970176
